{
"type": "FeatureCollection",
"name": "TalukaCentroids",
"crs": { "type": "name", "properties": { "name": "urn:ogc:def:crs:OGC:1.3:CRS84" } },
"features": [
{ "type": "Feature", "properties": { "NAME_0": "India", "NAME_1": "Gujarat", "NAME_2": "Anand", "NAME_3": "Anand", "TYPE_3": "Taluk" }, "geometry": { "type": "Point", "coordinates": [ 73.05023192132451, 22.586955753751006 ] } },
{ "type": "Feature", "properties": { "NAME_0": "India", "NAME_1": "Gujarat", "NAME_2": "Anand", "NAME_3": "Borsad", "TYPE_3": "Taluk" }, "geometry": { "type": "Point", "coordinates": [ 72.926483021145231, 22.361690733588443 ] } },
{ "type": "Feature", "properties": { "NAME_0": "India", "NAME_1": "Gujarat", "NAME_2": "Bharuch", "NAME_3": "Amod", "TYPE_3": "Taluk" }, "geometry": { "type": "Point", "coordinates": [ 72.912158070994138, 21.954565410097931 ] } },
{ "type": "Feature", "properties": { "NAME_0": "India", "NAME_1": "Gujarat", "NAME_2": "Bharuch", "NAME_3": "Bharuch", "TYPE_3": "Taluk" }, "geometry": { "type": "Point", "coordinates": [ 72.985917390288634, 21.770309678248193 ] } },
{ "type": "Feature", "properties": { "NAME_0": "India", "NAME_1": "Gujarat", "NAME_2": "Bharuch", "NAME_3": "Jambusar", "TYPE_3": "Taluk" }, "geometry": { "type": "Point", "coordinates": [ 72.689893033562143, 22.050856277558989 ] } },
{ "type": "Feature", "properties": { "NAME_0": "India", "NAME_1": "Gujarat", "NAME_2": "Bharuch", "NAME_3": "Vagra", "TYPE_3": "Taluk" }, "geometry": { "type": "Point", "coordinates": [ 72.719669323527512, 21.788816835136934 ] } },
{ "type": "Feature", "properties": { "NAME_0": "India", "NAME_1": "Gujarat", "NAME_2": "Dahod", "NAME_3": "Dahod", "TYPE_3": "Taluk" }, "geometry": { "type": "Point", "coordinates": [ 74.299615295703646, 22.803973793424589 ] } },
{ "type": "Feature", "properties": { "NAME_0": "India", "NAME_1": "Gujarat", "NAME_2": "Dahod", "NAME_3": "Devgadh Bariya", "TYPE_3": "Taluk" }, "geometry": { "type": "Point", "coordinates": [ 73.82334458007503, 22.64729107343037 ] } },
{ "type": "Feature", "properties": { "NAME_0": "India", "NAME_1": "Gujarat", "NAME_2": "Dahod", "NAME_3": "Jhalod", "TYPE_3": "Taluk" }, "geometry": { "type": "Point", "coordinates": [ 74.166861897019984, 23.038874277093228 ] } },
{ "type": "Feature", "properties": { "NAME_0": "India", "NAME_1": "Gujarat", "NAME_2": "Dahod", "NAME_3": "Limkheda", "TYPE_3": "Taluk" }, "geometry": { "type": "Point", "coordinates": [ 74.063289088182785, 22.776901288793162 ] } },
{ "type": "Feature", "properties": { "NAME_0": "India", "NAME_1": "Gujarat", "NAME_2": "Dahod", "NAME_3": "Santrampur", "TYPE_3": "Taluk" }, "geometry": { "type": "Point", "coordinates": [ 73.887773738198874, 23.226706768223057 ] } },
{ "type": "Feature", "properties": { "NAME_0": "India", "NAME_1": "Gujarat", "NAME_2": "Kheda", "NAME_3": "Thasra", "TYPE_3": "Taluk" }, "geometry": { "type": "Point", "coordinates": [ 73.229382717133419, 22.814471469017466 ] } },
{ "type": "Feature", "properties": { "NAME_0": "India", "NAME_1": "Gujarat", "NAME_2": "Kheda", "NAME_3": "Vadasinor", "TYPE_3": "Taluk" }, "geometry": { "type": "Point", "coordinates": [ 73.351793246668294, 23.039519445956156 ] } },
{ "type": "Feature", "properties": { "NAME_0": "India", "NAME_1": "Gujarat", "NAME_2": "Panch Mahals", "NAME_3": "Godhra", "TYPE_3": "Taluk" }, "geometry": { "type": "Point", "coordinates": [ 73.689720413960757, 22.798899224670155 ] } },
{ "type": "Feature", "properties": { "NAME_0": "India", "NAME_1": "Gujarat", "NAME_2": "Panch Mahals", "NAME_3": "Halol", "TYPE_3": "Taluk" }, "geometry": { "type": "Point", "coordinates": [ 73.543351007960354, 22.45463834849723 ] } },
{ "type": "Feature", "properties": { "NAME_0": "India", "NAME_1": "Gujarat", "NAME_2": "Panch Mahals", "NAME_3": "Jambughoda", "TYPE_3": "Taluk" }, "geometry": { "type": "Point", "coordinates": [ 73.707520939907354, 22.407143018134011 ] } },
{ "type": "Feature", "properties": { "NAME_0": "India", "NAME_1": "Gujarat", "NAME_2": "Panch Mahals", "NAME_3": "Kalol", "TYPE_3": "Taluk" }, "geometry": { "type": "Point", "coordinates": [ 73.522277287101218, 22.642922500117116 ] } },
{ "type": "Feature", "properties": { "NAME_0": "India", "NAME_1": "Gujarat", "NAME_2": "Panch Mahals", "NAME_3": "Lunavada", "TYPE_3": "Taluk" }, "geometry": { "type": "Point", "coordinates": [ 73.60024478603944, 23.179778600020288 ] } },
{ "type": "Feature", "properties": { "NAME_0": "India", "NAME_1": "Gujarat", "NAME_2": "Panch Mahals", "NAME_3": "Shehera", "TYPE_3": "Taluk" }, "geometry": { "type": "Point", "coordinates": [ 73.622675188376206, 22.936233721323649 ] } },
{ "type": "Feature", "properties": { "NAME_0": "India", "NAME_1": "Gujarat", "NAME_2": "Sabar Kantha", "NAME_3": "Bayad", "TYPE_3": "Taluk" }, "geometry": { "type": "Point", "coordinates": [ 73.292748283001515, 23.265332299075475 ] } },
{ "type": "Feature", "properties": { "NAME_0": "India", "NAME_1": "Gujarat", "NAME_2": "Sabar Kantha", "NAME_3": "Vijayanagar", "TYPE_3": "Taluk" }, "geometry": { "type": "Point", "coordinates": [ 73.291430081162815, 23.974493640852405 ] } },
{ "type": "Feature", "properties": { "NAME_0": "India", "NAME_1": "Gujarat", "NAME_2": "Vadodara", "NAME_3": "Chhota Udaipur", "TYPE_3": "Taluk" }, "geometry": { "type": "Point", "coordinates": [ 74.033910576719634, 22.093504534414603 ] } },
{ "type": "Feature", "properties": { "NAME_0": "India", "NAME_1": "Gujarat", "NAME_2": "Vadodara", "NAME_3": "Dabhoi", "TYPE_3": "Taluk" }, "geometry": { "type": "Point", "coordinates": [ 73.390591936088725, 22.119180116050092 ] } },
{ "type": "Feature", "properties": { "NAME_0": "India", "NAME_1": "Gujarat", "NAME_2": "Vadodara", "NAME_3": "Jetpur Pavi", "TYPE_3": "Taluk" }, "geometry": { "type": "Point", "coordinates": [ 73.841054296812075, 22.318207255887604 ] } },
{ "type": "Feature", "properties": { "NAME_0": "India", "NAME_1": "Gujarat", "NAME_2": "Vadodara", "NAME_3": "Karjan", "TYPE_3": "Taluk" }, "geometry": { "type": "Point", "coordinates": [ 73.139120177755402, 21.985886593827463 ] } },
{ "type": "Feature", "properties": { "NAME_0": "India", "NAME_1": "Gujarat", "NAME_2": "Vadodara", "NAME_3": "Padra", "TYPE_3": "Taluk" }, "geometry": { "type": "Point", "coordinates": [ 73.007751009547093, 22.181225078659175 ] } },
{ "type": "Feature", "properties": { "NAME_0": "India", "NAME_1": "Gujarat", "NAME_2": "Vadodara", "NAME_3": "Sankheda", "TYPE_3": "Taluk" }, "geometry": { "type": "Point", "coordinates": [ 73.639927641704872, 22.19463417894821 ] } },
{ "type": "Feature", "properties": { "NAME_0": "India", "NAME_1": "Gujarat", "NAME_2": "Vadodara", "NAME_3": "Savli", "TYPE_3": "Taluk" }, "geometry": { "type": "Point", "coordinates": [ 73.288432999646773, 22.583153937953334 ] } },
{ "type": "Feature", "properties": { "NAME_0": "India", "NAME_1": "Gujarat", "NAME_2": "Vadodara", "NAME_3": "Sinor", "TYPE_3": "Taluk" }, "geometry": { "type": "Point", "coordinates": [ 73.344669776247699, 21.974090280206585 ] } },
{ "type": "Feature", "properties": { "NAME_0": "India", "NAME_1": "Gujarat", "NAME_2": "Vadodara", "NAME_3": "Vadodara", "TYPE_3": "Taluk" }, "geometry": { "type": "Point", "coordinates": [ 73.18559715088432, 22.282548127450156 ] } },
{ "type": "Feature", "properties": { "NAME_0": "India", "NAME_1": "Gujarat", "NAME_2": "Vadodara", "NAME_3": "Waghoriya", "TYPE_3": "Taluk" }, "geometry": { "type": "Point", "coordinates": [ 73.399256557091704, 22.343050754277069 ] } },
{ "type": "Feature", "properties": { "NAME_0": "India", "NAME_1": "Madhya Pradesh", "NAME_2": "Dhar", "NAME_3": "Badnawar", "TYPE_3": "Taluk" }, "geometry": { "type": "Point", "coordinates": [ 75.214234587675307, 22.939212477129857 ] } },
{ "type": "Feature", "properties": { "NAME_0": "India", "NAME_1": "Madhya Pradesh", "NAME_2": "Dhar", "NAME_3": "Manawar", "TYPE_3": "Taluk" }, "geometry": { "type": "Point", "coordinates": [ 75.155350594890763, 22.299952341469048 ] } },
{ "type": "Feature", "properties": { "NAME_0": "India", "NAME_1": "Madhya Pradesh", "NAME_2": "Dhar", "NAME_3": "Sardarpur", "TYPE_3": "Taluk" }, "geometry": { "type": "Point", "coordinates": [ 75.00302229597925, 22.722069077344848 ] } },
{ "type": "Feature", "properties": { "NAME_0": "India", "NAME_1": "Madhya Pradesh", "NAME_2": "Jhabua", "NAME_3": "Alirajpur", "TYPE_3": "Taluk" }, "geometry": { "type": "Point", "coordinates": [ 74.302655317780491, 22.232584634897716 ] } },
{ "type": "Feature", "properties": { "NAME_0": "India", "NAME_1": "Madhya Pradesh", "NAME_2": "Jhabua", "NAME_3": "Jhabua", "TYPE_3": "Taluk" }, "geometry": { "type": "Point", "coordinates": [ 74.617481943412457, 22.732062775313594 ] } },
{ "type": "Feature", "properties": { "NAME_0": "India", "NAME_1": "Madhya Pradesh", "NAME_2": "Jhabua", "NAME_3": "Jobat", "TYPE_3": "Taluk" }, "geometry": { "type": "Point", "coordinates": [ 74.501487454194503, 22.486977149601419 ] } },
{ "type": "Feature", "properties": { "NAME_0": "India", "NAME_1": "Madhya Pradesh", "NAME_2": "Jhabua", "NAME_3": "Petlawad", "TYPE_3": "Taluk" }, "geometry": { "type": "Point", "coordinates": [ 74.876037552622606, 22.983756415257197 ] } },
{ "type": "Feature", "properties": { "NAME_0": "India", "NAME_1": "Madhya Pradesh", "NAME_2": "Jhabua", "NAME_3": "Thandla", "TYPE_3": "Taluk" }, "geometry": { "type": "Point", "coordinates": [ 74.57145613064155, 23.033976582566979 ] } },
{ "type": "Feature", "properties": { "NAME_0": "India", "NAME_1": "Madhya Pradesh", "NAME_2": "Neemuch", "NAME_3": "Nimach", "TYPE_3": "Taluk" }, "geometry": { "type": "Point", "coordinates": [ 74.912600057840677, 24.434136540051028 ] } },
{ "type": "Feature", "properties": { "NAME_0": "India", "NAME_1": "Madhya Pradesh", "NAME_2": "Ratlam", "NAME_3": "Jaora", "TYPE_3": "Taluk" }, "geometry": { "type": "Point", "coordinates": [ 75.109458722548368, 23.667124256976468 ] } },
{ "type": "Feature", "properties": { "NAME_0": "India", "NAME_1": "Madhya Pradesh", "NAME_2": "Ratlam", "NAME_3": "Ratlam", "TYPE_3": "Taluk" }, "geometry": { "type": "Point", "coordinates": [ 75.081612400029954, 23.307633193366783 ] } },
{ "type": "Feature", "properties": { "NAME_0": "India", "NAME_1": "Madhya Pradesh", "NAME_2": "Ratlam", "NAME_3": "Sailana", "TYPE_3": "Taluk" }, "geometry": { "type": "Point", "coordinates": [ 74.77542774142141, 23.34807167829269 ] } },
{ "type": "Feature", "properties": { "NAME_0": "India", "NAME_1": "Madhya Pradesh", "NAME_2": "Ujjain", "NAME_3": "Barnagar", "TYPE_3": "Taluk" }, "geometry": { "type": "Point", "coordinates": [ 75.430607705406061, 23.121106653388651 ] } },
{ "type": "Feature", "properties": { "NAME_0": "India", "NAME_1": "Rajasthan", "NAME_2": "Banswara", "NAME_3": "Banswara", "TYPE_3": "Taluk" }, "geometry": { "type": "Point", "coordinates": [ 74.526807481137567, 23.523276908381945 ] } },
{ "type": "Feature", "properties": { "NAME_0": "India", "NAME_1": "Rajasthan", "NAME_2": "Banswara", "NAME_3": "Garhi", "TYPE_3": "Taluk" }, "geometry": { "type": "Point", "coordinates": [ 74.202593162928693, 23.613918665489326 ] } },
{ "type": "Feature", "properties": { "NAME_0": "India", "NAME_1": "Rajasthan", "NAME_2": "Banswara", "NAME_3": "Ghatol", "TYPE_3": "Taluk" }, "geometry": { "type": "Point", "coordinates": [ 74.513592858502292, 23.772823286347741 ] } },
{ "type": "Feature", "properties": { "NAME_0": "India", "NAME_1": "Rajasthan", "NAME_2": "Banswara", "NAME_3": "Kalinjara", "TYPE_3": "Taluk" }, "geometry": { "type": "Point", "coordinates": [ 74.415270405967902, 23.258597868339816 ] } },
{ "type": "Feature", "properties": { "NAME_0": "India", "NAME_1": "Rajasthan", "NAME_2": "Banswara", "NAME_3": "n.a. ( 965)", "TYPE_3": "Taluk" }, "geometry": { "type": "Point", "coordinates": [ 74.140013833471343, 23.340497638710943 ] } },
{ "type": "Feature", "properties": { "NAME_0": "India", "NAME_1": "Rajasthan", "NAME_2": "Chittaurgarh", "NAME_3": "Arnaud", "TYPE_3": "Taluk" }, "geometry": { "type": "Point", "coordinates": [ 74.827147980227664, 23.747754127198807 ] } },
{ "type": "Feature", "properties": { "NAME_0": "India", "NAME_1": "Rajasthan", "NAME_2": "Chittaurgarh", "NAME_3": "Bari Sadri", "TYPE_3": "Taluk" }, "geometry": { "type": "Point", "coordinates": [ 74.512317897878305, 24.343179282098461 ] } },
{ "type": "Feature", "properties": { "NAME_0": "India", "NAME_1": "Rajasthan", "NAME_2": "Chittaurgarh", "NAME_3": "Chhoti Sadri", "TYPE_3": "Taluk" }, "geometry": { "type": "Point", "coordinates": [ 74.710399111742817, 24.314927634114628 ] } },
{ "type": "Feature", "properties": { "NAME_0": "India", "NAME_1": "Rajasthan", "NAME_2": "Chittaurgarh", "NAME_3": "n.a. ( 793)", "TYPE_3": "Taluk" }, "geometry": { "type": "Point", "coordinates": [ 74.351287989960298, 24.523405641287663 ] } },
{ "type": "Feature", "properties": { "NAME_0": "India", "NAME_1": "Rajasthan", "NAME_2": "Chittaurgarh", "NAME_3": "Nimbahera", "TYPE_3": "Taluk" }, "geometry": { "type": "Point", "coordinates": [ 74.734819143393665, 24.635248733424305 ] } },
{ "type": "Feature", "properties": { "NAME_0": "India", "NAME_1": "Rajasthan", "NAME_2": "Chittaurgarh", "NAME_3": "Pratapgarh", "TYPE_3": "Taluk" }, "geometry": { "type": "Point", "coordinates": [ 74.753483537446968, 24.049219194014157 ] } },
{ "type": "Feature", "properties": { "NAME_0": "India", "NAME_1": "Rajasthan", "NAME_2": "Dungarpur", "NAME_3": "Aspur", "TYPE_3": "Taluk" }, "geometry": { "type": "Point", "coordinates": [ 74.109746716670074, 23.860008951782433 ] } },
{ "type": "Feature", "properties": { "NAME_0": "India", "NAME_1": "Rajasthan", "NAME_2": "Dungarpur", "NAME_3": "Dungarpur", "TYPE_3": "Taluk" }, "geometry": { "type": "Point", "coordinates": [ 73.684544737643549, 23.824383117691365 ] } },
{ "type": "Feature", "properties": { "NAME_0": "India", "NAME_1": "Rajasthan", "NAME_2": "Dungarpur", "NAME_3": "Sagwara", "TYPE_3": "Taluk" }, "geometry": { "type": "Point", "coordinates": [ 73.969193108527719, 23.541763088440781 ] } },
{ "type": "Feature", "properties": { "NAME_0": "India", "NAME_1": "Rajasthan", "NAME_2": "Dungarpur", "NAME_3": "Simalwara", "TYPE_3": "Taluk" }, "geometry": { "type": "Point", "coordinates": [ 73.77797653082844, 23.606404740822292 ] } },
{ "type": "Feature", "properties": { "NAME_0": "India", "NAME_1": "Rajasthan", "NAME_2": "Udaipur", "NAME_3": "Kherwara", "TYPE_3": "Taluk" }, "geometry": { "type": "Point", "coordinates": [ 73.555865124529006, 24.040493012130362 ] } },
{ "type": "Feature", "properties": { "NAME_0": "India", "NAME_1": "Rajasthan", "NAME_2": "Udaipur", "NAME_3": "Kotra", "TYPE_3": "Taluk" }, "geometry": { "type": "Point", "coordinates": [ 73.244135628605534, 24.501119070286819 ] } },
{ "type": "Feature", "properties": { "NAME_0": "India", "NAME_1": "Rajasthan", "NAME_2": "Udaipur", "NAME_3": "Lasadia", "TYPE_3": "Taluk" }, "geometry": { "type": "Point", "coordinates": [ 74.382783786233162, 24.128474369436034 ] } },
{ "type": "Feature", "properties": { "NAME_0": "India", "NAME_1": "Rajasthan", "NAME_2": "Udaipur", "NAME_3": "Phalsiya", "TYPE_3": "Taluk" }, "geometry": { "type": "Point", "coordinates": [ 73.43163037235648, 24.314192620551282 ] } },
{ "type": "Feature", "properties": { "NAME_0": "India", "NAME_1": "Rajasthan", "NAME_2": "Udaipur", "NAME_3": "Salumbar", "TYPE_3": "Taluk" }, "geometry": { "type": "Point", "coordinates": [ 74.096406775386171, 24.157415061498387 ] } },
{ "type": "Feature", "properties": { "NAME_0": "India", "NAME_1": "Rajasthan", "NAME_2": "Udaipur", "NAME_3": "Sarada", "TYPE_3": "Taluk" }, "geometry": { "type": "Point", "coordinates": [ 73.825194733155541, 24.187319657018094 ] } },
{ "type": "Feature", "properties": { "NAME_0": "India", "NAME_1": "Rajasthan", "NAME_2": "Udaipur", "NAME_3": "Udaipur", "TYPE_3": "Taluk" }, "geometry": { "type": "Point", "coordinates": [ 73.703739920408495, 24.542028073132158 ] } },
{ "type": "Feature", "properties": { "NAME_0": "India", "NAME_1": "Rajasthan", "NAME_2": "Udaipur", "NAME_3": "Vallabhnagar", "TYPE_3": "Taluk" }, "geometry": { "type": "Point", "coordinates": [ 74.065225130423698, 24.619828239564448 ] } }
]
}
